{
"type": "FeatureCollection",
"name": "NPR",
"crs": { "type": "name", "properties": { "name": "urn:ogc:def:crs:OGC:1.3:CRS84" } },
"features": [
{ "type": "Feature", "properties": { "Name": "Adingpar" }, "geometry": { "type": "Point", "coordinates": [ 80.980301611183606, 19.416167713918099 ] } },
{ "type": "Feature", "properties": { "Name": "kosa sentar" }, "geometry": { "type": "Point", "coordinates": [ 81.176274, 19.703772 ] } },
{ "type": "Feature", "properties": { "Name": "Akabeda" }, "geometry": { "type": "Point", "coordinates": [ 81.1820215835574, 19.593383671705901 ] } },
{ "type": "Feature", "properties": { "Name": "Akabeda" }, "geometry": { "type": "Point", "coordinates": [ 81.082001, 19.375783 ] } },
{ "type": "Feature", "properties": { "Name": "Arasgadpara" }, "geometry": { "type": "Point", "coordinates": [ 81.158214, 19.696133 ] } },
{ "type": "Feature", "properties": { "Name": "Kospadka" }, "geometry": { "type": "Point", "coordinates": [ 81.017218, 19.679066 ] } },
{ "type": "Feature", "properties": { "Name": "Albeda" }, "geometry": { "type": "Point", "coordinates": [ 81.124625180699397, 19.499196195219699 ] } },
{ "type": "Feature", "properties": { "Name": "Albeda" }, "geometry": { "type": "Point", "coordinates": [ 81.116507, 19.476974 ] } },
{ "type": "Feature", "properties": { "Name": "Amodpara" }, "geometry": { "type": "Point", "coordinates": [ 81.090081, 19.523243 ] } },
{ "type": "Feature", "properties": { "Name": "Balbeda" }, "geometry": { "type": "Point", "coordinates": [ 80.868132157433905, 19.618169606169101 ] } },
{ "type": "Feature", "properties": { "Name": "Balebeda" }, "geometry": { "type": "Point", "coordinates": [ 80.850883, 19.676023 ] } },
{ "type": "Feature", "properties": { "Name": "Basutpara" }, "geometry": { "type": "Point", "coordinates": [ 81.041907051630801, 19.473784045259301 ] } },
{ "type": "Feature", "properties": { "Name": "Batnar" }, "geometry": { "type": "Point", "coordinates": [ 81.083672887279107, 19.479846575993999 ] } },
{ "type": "Feature", "properties": { "Name": "Batpara" }, "geometry": { "type": "Point", "coordinates": [ 81.061434, 19.522086 ] } },
{ "type": "Feature", "properties": { "Name": "Bechagaon" }, "geometry": { "type": "Point", "coordinates": [ 81.033092561562398, 19.6895397429189 ] } },
{ "type": "Feature", "properties": { "Name": "Bedmameta" }, "geometry": { "type": "Point", "coordinates": [ 81.084397150565806, 19.497323432131999 ] } },
{ "type": "Feature", "properties": { "Name": "Beechpara\/ghotulpara" }, "geometry": { "type": "Point", "coordinates": [ 81.070562, 19.535626 ] } },
{ "type": "Feature", "properties": { "Name": "Bingunda" }, "geometry": { "type": "Point", "coordinates": [ 80.840083, 19.495424 ] } },
{ "type": "Feature", "properties": { "Name": "Bogdeo" }, "geometry": { "type": "Point", "coordinates": [ 81.104515492018905, 19.460064665227002 ] } },
{ "type": "Feature", "properties": { "Name": "Brahebeda" }, "geometry": { "type": "Point", "coordinates": [ 81.120528393940205, 19.5331487335452 ] } },
{ "type": "Feature", "properties": { "Name": "brehbeda" }, "geometry": { "type": "Point", "coordinates": [ 81.127441225273401, 19.3622904468094 ] } },
{ "type": "Feature", "properties": { "Name": "Budhupara\nWP" }, "geometry": { "type": "Point", "coordinates": [ 81.073893, 19.530152 ] } },
{ "type": "Feature", "properties": { "Name": "Burum" }, "geometry": { "type": "Point", "coordinates": [ 80.934469452343805, 19.560581112315699 ] } },
{ "type": "Feature", "properties": { "Name": "Chalcher" }, "geometry": { "type": "Point", "coordinates": [ 81.048083055624204, 19.331907778135001 ] } },
{ "type": "Feature", "properties": { "Name": "Chalcherpara" }, "geometry": { "type": "Point", "coordinates": [ 81.051272854826394, 19.360845746983799 ] } },
{ "type": "Feature", "properties": { "Name": "Dangalputti" }, "geometry": { "type": "Point", "coordinates": [ 81.082045195949206, 19.446417433862202 ] } },
{ "type": "Feature", "properties": { "Name": "Dhebur" }, "geometry": { "type": "Point", "coordinates": [ 80.886512499923299, 19.5830191669159 ] } },
{ "type": "Feature", "properties": { "Name": "Dhobe" }, "geometry": { "type": "Point", "coordinates": [ 80.929712332872398, 19.339740242025101 ] } },
{ "type": "Feature", "properties": { "Name": "Dhondarbera" }, "geometry": { "type": "Point", "coordinates": [ 81.023287340050501, 19.284376591500202 ] } },
{ "type": "Feature", "properties": { "Name": "Dhumma viran" }, "geometry": { "type": "Point", "coordinates": [ 81.005372, 19.62587 ] } },
{ "type": "Feature", "properties": { "Name": "Dhurbera" }, "geometry": { "type": "Point", "coordinates": [ 80.997719316733395, 19.449594684547201 ] } },
{ "type": "Feature", "properties": { "Name": "Dulur" }, "geometry": { "type": "Point", "coordinates": [ 81.150790084054194, 19.357851751998101 ] } },
{ "type": "Feature", "properties": { "Name": "Dumnar" }, "geometry": { "type": "Point", "coordinates": [ 81.109041893579899, 19.499488660973402 ] } },
{ "type": "Feature", "properties": { "Name": "Dutakhar" }, "geometry": { "type": "Point", "coordinates": [ 81.111084658146495, 19.6907132154309 ] } },
{ "type": "Feature", "properties": { "Name": "Edgunda" }, "geometry": { "type": "Point", "coordinates": [ 80.971626224751503, 19.4465867862701 ] } },
{ "type": "Feature", "properties": { "Name": "Garawahi" }, "geometry": { "type": "Point", "coordinates": [ 81.050312958448202, 19.6513410263615 ] } },
{ "type": "Feature", "properties": { "Name": "Gardum" }, "geometry": { "type": "Point", "coordinates": [ 81.133707278553999, 19.437303619410901 ] } },
{ "type": "Feature", "properties": { "Name": "Gattakal" }, "geometry": { "type": "Point", "coordinates": [ 81.096142332140602, 19.517594397873701 ] } },
{ "type": "Feature", "properties": { "Name": "Gattakal 1" }, "geometry": { "type": "Point", "coordinates": [ 81.111040555653105, 19.520405833102 ] } },
{ "type": "Feature", "properties": { "Name": "Ghamandi" }, "geometry": { "type": "Point", "coordinates": [ 80.885813062698404, 19.572689560939398 ] } },
{ "type": "Feature", "properties": { "Name": "Ghamandipara" }, "geometry": { "type": "Point", "coordinates": [ 80.864405592411799, 19.5360769378998 ] } },
{ "type": "Feature", "properties": { "Name": "Ghatakal" }, "geometry": { "type": "Point", "coordinates": [ 80.880335833214303, 19.378706944419498 ] } },
{ "type": "Feature", "properties": { "Name": "Ghot" }, "geometry": { "type": "Point", "coordinates": [ 80.910171, 19.228986 ] } },
{ "type": "Feature", "properties": { "Name": "Ghotul" }, "geometry": { "type": "Point", "coordinates": [ 81.002891150107899, 19.395115242141799 ] } },
{ "type": "Feature", "properties": { "Name": "godapar" }, "geometry": { "type": "Point", "coordinates": [ 80.828861, 19.508408 ] } },
{ "type": "Feature", "properties": { "Name": "godelmarka" }, "geometry": { "type": "Point", "coordinates": [ 80.841813523798294, 19.555538111747001 ] } },
{ "type": "Feature", "properties": { "Name": "Gomagal" }, "geometry": { "type": "Point", "coordinates": [ 81.070539709638098, 19.4243091031232 ] } },
{ "type": "Feature", "properties": { "Name": "Gongla" }, "geometry": { "type": "Point", "coordinates": [ 80.9975, 19.665 ] } },
{ "type": "Feature", "properties": { "Name": "Goranur" }, "geometry": { "type": "Point", "coordinates": [ 81.142359844914594, 19.6032326457651 ] } },
{ "type": "Feature", "properties": { "Name": "Gotingpar" }, "geometry": { "type": "Point", "coordinates": [ 81.069700638080107, 19.399823063854999 ] } },
{ "type": "Feature", "properties": { "Name": "Gudapara" }, "geometry": { "type": "Point", "coordinates": [ 81.031375, 19.666619 ] } },
{ "type": "Feature", "properties": { "Name": "Gumarka" }, "geometry": { "type": "Point", "coordinates": [ 81.013990000156895, 19.4103561115876 ] } },
{ "type": "Feature", "properties": { "Name": "Gumiyabeda" }, "geometry": { "type": "Point", "coordinates": [ 81.124455, 19.699646 ] } },
{ "type": "Feature", "properties": { "Name": "guner" }, "geometry": { "type": "Point", "coordinates": [ 81.026715111435806, 19.760417209949399 ] } },
{ "type": "Feature", "properties": { "Name": "Gurdal" }, "geometry": { "type": "Point", "coordinates": [ 81.117894352639496, 19.479109854908 ] } },
{ "type": "Feature", "properties": { "Name": "Gurgapadar" }, "geometry": { "type": "Point", "coordinates": [ 80.934049913223106, 19.5955316310122 ] } },
{ "type": "Feature", "properties": { "Name": "Hasnar" }, "geometry": { "type": "Point", "coordinates": [ 81.125492948861293, 19.422222043642901 ] } },
{ "type": "Feature", "properties": { "Name": "Hetalnar" }, "geometry": { "type": "Point", "coordinates": [ 81.107608537389396, 19.654403404759801 ] } },
{ "type": "Feature", "properties": { "Name": "Hikuhnar" }, "geometry": { "type": "Point", "coordinates": [ 80.861241944242806, 19.582077222420999 ] } },
{ "type": "Feature", "properties": { "Name": "Hoiper" }, "geometry": { "type": "Point", "coordinates": [ 81.0837908236185, 19.4160861249254 ] } },
{ "type": "Feature", "properties": { "Name": "Ikmeta" }, "geometry": { "type": "Point", "coordinates": [ 81.013779255206899, 19.646110280899101 ] } },
{ "type": "Feature", "properties": { "Name": "Ikpar" }, "geometry": { "type": "Point", "coordinates": [ 81.136551184851498, 19.5813328702428 ] } },
{ "type": "Feature", "properties": { "Name": "Irakbhatti" }, "geometry": { "type": "Point", "coordinates": [ 81.042275000076501, 19.6097727779139 ] } },
{ "type": "Feature", "properties": { "Name": "Irpanar" }, "geometry": { "type": "Point", "coordinates": [ 80.815519, 19.782468 ] } },
{ "type": "Feature", "properties": { "Name": "Irpanar" }, "geometry": { "type": "Point", "coordinates": [ 80.974946955085699, 19.6754796802283 ] } },
{ "type": "Feature", "properties": { "Name": "Irpanar" }, "geometry": { "type": "Point", "coordinates": [ 81.111798867266202, 19.6194974229353 ] } },
{ "type": "Feature", "properties": { "Name": "Ittapara" }, "geometry": { "type": "Point", "coordinates": [ 80.934876, 19.707276 ] } },
{ "type": "Feature", "properties": { "Name": "Jadda" }, "geometry": { "type": "Point", "coordinates": [ 80.988957094348905, 19.623337046065402 ] } },
{ "type": "Feature", "properties": { "Name": "Jatwar" }, "geometry": { "type": "Point", "coordinates": [ 80.913020899529002, 19.612369681241301 ] } },
{ "type": "Feature", "properties": { "Name": "Jatwar\npara" }, "geometry": { "type": "Point", "coordinates": [ 80.919215, 19.616462 ] } },
{ "type": "Feature", "properties": { "Name": "Jharawahi" }, "geometry": { "type": "Point", "coordinates": [ 81.117339962113704, 19.6354198844402 ] } },
{ "type": "Feature", "properties": { "Name": "Kachapal" }, "geometry": { "type": "Point", "coordinates": [ 81.025663381695495, 19.588569388707999 ] } },
{ "type": "Feature", "properties": { "Name": "Kadapadvi Metta" }, "geometry": { "type": "Point", "coordinates": [ 80.735922776604994, 19.6070883338257 ] } },
{ "type": "Feature", "properties": { "Name": "Kalameta" }, "geometry": { "type": "Point", "coordinates": [ 81.094478885016201, 19.3683983122726 ] } },
{ "type": "Feature", "properties": { "Name": "kalebeda" }, "geometry": { "type": "Point", "coordinates": [ 81.107612803309394, 19.365980691367099 ] } },
{ "type": "Feature", "properties": { "Name": "Kamkal" }, "geometry": { "type": "Point", "coordinates": [ 81.100491, 19.693127 ] } },
{ "type": "Feature", "properties": { "Name": "Kanagaon" }, "geometry": { "type": "Point", "coordinates": [ 81.0334107330969, 19.6265166401279 ] } },
{ "type": "Feature", "properties": { "Name": "Kanakoti" }, "geometry": { "type": "Point", "coordinates": [ 80.906131492933397, 19.382399739628699 ] } },
{ "type": "Feature", "properties": { "Name": "Kandulpar" }, "geometry": { "type": "Point", "coordinates": [ 80.826618, 19.748422 ] } },
{ "type": "Feature", "properties": { "Name": "Karkabera" }, "geometry": { "type": "Point", "coordinates": [ 80.944117972834107, 19.6244183683663 ] } },
{ "type": "Feature", "properties": { "Name": "Karkapara" }, "geometry": { "type": "Point", "coordinates": [ 80.949311926754703, 19.404724136326401 ] } },
{ "type": "Feature", "properties": { "Name": "Kasturmeta" }, "geometry": { "type": "Point", "coordinates": [ 81.147780599283706, 19.5661471299019 ] } },
{ "type": "Feature", "properties": { "Name": "Kasturmeta" }, "geometry": { "type": "Point", "coordinates": [ 80.957126788891301, 19.5395917494812 ] } },
{ "type": "Feature", "properties": { "Name": "Kehnar" }, "geometry": { "type": "Point", "coordinates": [ 80.993055555403501, 19.502777777593099 ] } },
{ "type": "Feature", "properties": { "Name": "Kerali" }, "geometry": { "type": "Point", "coordinates": [ 81.107954142483194, 19.412503389887799 ] } },
{ "type": "Feature", "properties": { "Name": "Khodpar" }, "geometry": { "type": "Point", "coordinates": [ 81.031601597031596, 19.3752944609144 ] } },
{ "type": "Feature", "properties": { "Name": "Kihkad" }, "geometry": { "type": "Point", "coordinates": [ 81.063489807954696, 19.6792208158733 ] } },
{ "type": "Feature", "properties": { "Name": "Kiskaal" }, "geometry": { "type": "Point", "coordinates": [ 81.120395, 19.515217 ] } },
{ "type": "Feature", "properties": { "Name": "Kiskaal pahad" }, "geometry": { "type": "Point", "coordinates": [ 81.010294, 19.640214 ] } },
{ "type": "Feature", "properties": { "Name": "Kodenar" }, "geometry": { "type": "Point", "coordinates": [ 81.083096, 19.663263 ] } },
{ "type": "Feature", "properties": { "Name": "Kodenar" }, "geometry": { "type": "Point", "coordinates": [ 80.959308588122497, 19.584164570869198 ] } },
{ "type": "Feature", "properties": { "Name": "Kodenar" }, "geometry": { "type": "Point", "coordinates": [ 81.007500000007099, 19.466666666551099 ] } },
{ "type": "Feature", "properties": { "Name": "Kodlior" }, "geometry": { "type": "Point", "coordinates": [ 81.071619617128206, 19.535680634274499 ] } },
{ "type": "Feature", "properties": { "Name": "Kodlior 1" }, "geometry": { "type": "Point", "coordinates": [ 81.051344999889196, 19.543989722130799 ] } },
{ "type": "Feature", "properties": { "Name": "Kodnar" }, "geometry": { "type": "Point", "coordinates": [ 81.022286111292203, 19.477948055418601 ] } },
{ "type": "Feature", "properties": { "Name": "Kodoradi" }, "geometry": { "type": "Point", "coordinates": [ 81.038625079007005, 19.3596787437817 ] } },
{ "type": "Feature", "properties": { "Name": "Kodtamarka" }, "geometry": { "type": "Point", "coordinates": [ 80.970978500900301, 19.4668314462502 ] } },
{ "type": "Feature", "properties": { "Name": "Kohkameta" }, "geometry": { "type": "Point", "coordinates": [ 81.068877373099099, 19.652437783312099 ] } },
{ "type": "Feature", "properties": { "Name": "Kokapar" }, "geometry": { "type": "Point", "coordinates": [ 81.063911111005098, 19.3519675002056 ] } },
{ "type": "Feature", "properties": { "Name": "Kondahor" }, "geometry": { "type": "Point", "coordinates": [ 80.984568, 19.556463 ] } },
{ "type": "Feature", "properties": { "Name": "Kondakoti" }, "geometry": { "type": "Point", "coordinates": [ 81.054075157250395, 19.2543218719163 ] } },
{ "type": "Feature", "properties": { "Name": "Kondanar" }, "geometry": { "type": "Point", "coordinates": [ 80.997226272736199, 19.562916934147399 ] } },
{ "type": "Feature", "properties": { "Name": "Kongali" }, "geometry": { "type": "Point", "coordinates": [ 80.905661999001296, 19.640599041730301 ] } },
{ "type": "Feature", "properties": { "Name": "Kormeta" }, "geometry": { "type": "Point", "coordinates": [ 81.125317313849294, 19.611232004747301 ] } },
{ "type": "Feature", "properties": { "Name": "Kunjkal" }, "geometry": { "type": "Point", "coordinates": [ 81.007356694523907, 19.337603741328302 ] } },
{ "type": "Feature", "properties": { "Name": "Kurusnar" }, "geometry": { "type": "Point", "coordinates": [ 81.047163854375697, 19.380451362417698 ] } },
{ "type": "Feature", "properties": { "Name": "Kutul" }, "geometry": { "type": "Point", "coordinates": [ 81.023973708380794, 19.520484647257501 ] } },
{ "type": "Feature", "properties": { "Name": "Kutul 1" }, "geometry": { "type": "Point", "coordinates": [ 81.009020509570504, 19.518419512607402 ] } },
{ "type": "Feature", "properties": { "Name": "Kutul 2" }, "geometry": { "type": "Point", "coordinates": [ 81.008914999849296, 19.5255847222429 ] } },
{ "type": "Feature", "properties": { "Name": "Kutul Pharasgaon" }, "geometry": { "type": "Point", "coordinates": [ 81.056570402938405, 19.513290031249699 ] } },
{ "type": "Feature", "properties": { "Name": "Kutulpara" }, "geometry": { "type": "Point", "coordinates": [ 80.992677499920404, 19.499306388565401 ] } },
{ "type": "Feature", "properties": { "Name": "Kuvakaudi" }, "geometry": { "type": "Point", "coordinates": [ 80.873646, 19.477642 ] } },
{ "type": "Feature", "properties": { "Name": "Kuvanpara" }, "geometry": { "type": "Point", "coordinates": [ 81.057906, 19.523611 ] } },
{ "type": "Feature", "properties": { "Name": "Lnakuppa" }, "geometry": { "type": "Point", "coordinates": [ 80.683011944368602, 19.614876388892199 ] } },
{ "type": "Feature", "properties": { "Name": "Lnakuppa" }, "geometry": { "type": "Point", "coordinates": [ 80.724528344466293, 19.616326871205001 ] } },
{ "type": "Feature", "properties": { "Name": "Malkal" }, "geometry": { "type": "Point", "coordinates": [ 81.101253528803497, 19.5529182344854 ] } },
{ "type": "Feature", "properties": { "Name": "Mapangal" }, "geometry": { "type": "Point", "coordinates": [ 80.974705120853699, 19.561369444426301 ] } },
{ "type": "Feature", "properties": { "Name": "Maraskodo" }, "geometry": { "type": "Point", "coordinates": [ 80.966629, 19.658963 ] } },
{ "type": "Feature", "properties": { "Name": "Markur" }, "geometry": { "type": "Point", "coordinates": [ 80.969032222240401, 19.6178313889775 ] } },
{ "type": "Feature", "properties": { "Name": "Maroda" }, "geometry": { "type": "Point", "coordinates": [ 80.925135, 19.395251 ] } },
{ "type": "Feature", "properties": { "Name": "maselkodi" }, "geometry": { "type": "Point", "coordinates": [ 80.9688596036776, 19.6579379752039 ] } },
{ "type": "Feature", "properties": { "Name": "Meenwadd" }, "geometry": { "type": "Point", "coordinates": [ 80.667401825883402, 19.600960334674301 ] } },
{ "type": "Feature", "properties": { "Name": "Mesalkoti" }, "geometry": { "type": "Point", "coordinates": [ 80.836124166676299, 19.389231111441301 ] } },
{ "type": "Feature", "properties": { "Name": "Metabera" }, "geometry": { "type": "Point", "coordinates": [ 80.865597177141595, 19.427462686674801 ] } },
{ "type": "Feature", "properties": { "Name": "Metabera 1" }, "geometry": { "type": "Point", "coordinates": [ 80.874670960726604, 19.422088229424201 ] } },
{ "type": "Feature", "properties": { "Name": "Michbera" }, "geometry": { "type": "Point", "coordinates": [ 80.843258888921099, 19.390676111084598 ] } },
{ "type": "Feature", "properties": { "Name": "Michingpara" }, "geometry": { "type": "Point", "coordinates": [ 81.055193, 19.5392 ] } },
{ "type": "Feature", "properties": { "Name": "Mohandi" }, "geometry": { "type": "Point", "coordinates": [ 81.077001989468599, 19.5650089831842 ] } },
{ "type": "Feature", "properties": { "Name": "Mohandi 1" }, "geometry": { "type": "Point", "coordinates": [ 81.082737222344207, 19.5801044441565 ] } },
{ "type": "Feature", "properties": { "Name": "mokanpara" }, "geometry": { "type": "Point", "coordinates": [ 80.913607346102097, 19.4042283483357 ] } },
{ "type": "Feature", "properties": { "Name": "Murnar" }, "geometry": { "type": "Point", "coordinates": [ 81.040844999889998, 19.679076111252598 ] } },
{ "type": "Feature", "properties": { "Name": "Muser" }, "geometry": { "type": "Point", "coordinates": [ 81.000348, 19.567116 ] } },
{ "type": "Feature", "properties": { "Name": "Musnar" }, "geometry": { "type": "Point", "coordinates": [ 80.999687572933695, 19.568001586202801 ] } },
{ "type": "Feature", "properties": { "Name": "nakatpara" }, "geometry": { "type": "Point", "coordinates": [ 81.067793799350099, 19.481040657578198 ] } },
{ "type": "Feature", "properties": { "Name": "Nednar" }, "geometry": { "type": "Point", "coordinates": [ 81.189981917379001, 19.587105641799599 ] } },
{ "type": "Feature", "properties": { "Name": "nedpar" }, "geometry": { "type": "Point", "coordinates": [ 81.040270385523499, 19.3670279843194 ] } },
{ "type": "Feature", "properties": { "Name": "Neechepara\nDodpara" }, "geometry": { "type": "Point", "coordinates": [ 81.075537, 19.527946 ] } },
{ "type": "Feature", "properties": { "Name": "Nelanugur" }, "geometry": { "type": "Point", "coordinates": [ 80.9059163184521, 19.482677290209502 ] } },
{ "type": "Feature", "properties": { "Name": "Nernar" }, "geometry": { "type": "Point", "coordinates": [ 80.947134423466807, 19.670700431611301 ] } },
{ "type": "Feature", "properties": { "Name": "Nirameta" }, "geometry": { "type": "Point", "coordinates": [ 81.157762222147696, 19.591394166520299 ] } },
{ "type": "Feature", "properties": { "Name": "odchapar" }, "geometry": { "type": "Point", "coordinates": [ 80.855732419937098, 19.690688231106801 ] } },
{ "type": "Feature", "properties": { "Name": "Okpar" }, "geometry": { "type": "Point", "coordinates": [ 81.119080049250599, 19.547219180191 ] } },
{ "type": "Feature", "properties": { "Name": "Okpar 1" }, "geometry": { "type": "Point", "coordinates": [ 81.105319722193997, 19.556981944796298 ] } },
{ "type": "Feature", "properties": { "Name": "Onger" }, "geometry": { "type": "Point", "coordinates": [ 81.132733071661605, 19.454644742839999 ] } },
{ "type": "Feature", "properties": { "Name": "Orchapal" }, "geometry": { "type": "Point", "coordinates": [ 80.856874, 19.693813 ] } },
{ "type": "Feature", "properties": { "Name": "Orchhameta" }, "geometry": { "type": "Point", "coordinates": [ 81.089468430201194, 19.337358587625399 ] } },
{ "type": "Feature", "properties": { "Name": "Padamkot" }, "geometry": { "type": "Point", "coordinates": [ 80.946234614806102, 19.517793638992501 ] } },
{ "type": "Feature", "properties": { "Name": "Padamkotpara" }, "geometry": { "type": "Point", "coordinates": [ 80.936898769016295, 19.5128355902241 ] } },
{ "type": "Feature", "properties": { "Name": "Padmeta" }, "geometry": { "type": "Point", "coordinates": [ 80.940513814230002, 19.364484047970301 ] } },
{ "type": "Feature", "properties": { "Name": "Paiver" }, "geometry": { "type": "Point", "coordinates": [ 81.066506111008707, 19.457443888840899 ] } },
{ "type": "Feature", "properties": { "Name": "Parbera" }, "geometry": { "type": "Point", "coordinates": [ 80.951119999906894, 19.6636638890126 ] } },
{ "type": "Feature", "properties": { "Name": "Parmilpatti" }, "geometry": { "type": "Point", "coordinates": [ 80.878806, 19.508734 ] } },
{ "type": "Feature", "properties": { "Name": "Parpa" }, "geometry": { "type": "Point", "coordinates": [ 81.006821944415194, 19.5180719443164 ] } },
{ "type": "Feature", "properties": { "Name": "Pharashbera" }, "geometry": { "type": "Point", "coordinates": [ 80.948272760629806, 19.4468138353439 ] } },
{ "type": "Feature", "properties": { "Name": "Piddenpar" }, "geometry": { "type": "Point", "coordinates": [ 81.012048255589605, 19.664971977996998 ] } },
{ "type": "Feature", "properties": { "Name": "Podewada" }, "geometry": { "type": "Point", "coordinates": [ 80.814481, 19.530566 ] } },
{ "type": "Feature", "properties": { "Name": "Ranibeda" }, "geometry": { "type": "Point", "coordinates": [ 81.102689, 19.702687 ] } },
{ "type": "Feature", "properties": { "Name": "Rekapal" }, "geometry": { "type": "Point", "coordinates": [ 80.973946, 19.412378 ] } },
{ "type": "Feature", "properties": { "Name": "Reping" }, "geometry": { "type": "Point", "coordinates": [ 80.856326, 19.670489 ] } },
{ "type": "Feature", "properties": { "Name": "Sargipal" }, "geometry": { "type": "Point", "coordinates": [ 81.010558208591902, 19.688692404494301 ] } },
{ "type": "Feature", "properties": { "Name": "Tadokur Para" }, "geometry": { "type": "Point", "coordinates": [ 81.094757789602198, 19.593045994785601 ] } },
{ "type": "Feature", "properties": { "Name": "Tahkadond" }, "geometry": { "type": "Point", "coordinates": [ 80.917049722142593, 19.699421389016301 ] } },
{ "type": "Feature", "properties": { "Name": "Tahkatola" }, "geometry": { "type": "Point", "coordinates": [ 80.934877750571999, 19.706763830131202 ] } },
{ "type": "Feature", "properties": { "Name": "Tarokur" }, "geometry": { "type": "Point", "coordinates": [ 81.088737539875794, 19.5871165536851 ] } },
{ "type": "Feature", "properties": { "Name": "Todger hilles" }, "geometry": { "type": "Point", "coordinates": [ 81.050982, 19.570437 ] } },
{ "type": "Feature", "properties": { "Name": "Toinar" }, "geometry": { "type": "Point", "coordinates": [ 81.114893359446697, 19.432282429760502 ] } },
{ "type": "Feature", "properties": { "Name": "Toke 1" }, "geometry": { "type": "Point", "coordinates": [ 80.990890699282502, 19.5700524382959 ] } },
{ "type": "Feature", "properties": { "Name": "Toke 2" }, "geometry": { "type": "Point", "coordinates": [ 80.967442806240996, 19.576373048415299 ] } },
{ "type": "Feature", "properties": { "Name": "Toyameta" }, "geometry": { "type": "Point", "coordinates": [ 80.93764, 19.398957 ] } },
{ "type": "Feature", "properties": { "Name": "Toyameta" }, "geometry": { "type": "Point", "coordinates": [ 81.176111033526894, 19.5801019898425 ] } },
{ "type": "Feature", "properties": { "Name": "Toyameta" }, "geometry": { "type": "Point", "coordinates": [ 80.937958308864197, 19.419562291185901 ] } },
{ "type": "Feature", "properties": { "Name": "Uparpara" }, "geometry": { "type": "Point", "coordinates": [ 80.981242, 19.410258 ] } },
{ "type": "Feature", "properties": { "Name": "Urebeda" }, "geometry": { "type": "Point", "coordinates": [ 81.010889, 19.598798 ] } },
{ "type": "Feature", "properties": { "Name": "Usebeda" }, "geometry": { "type": "Point", "coordinates": [ 80.909381096522907, 19.512076388739199 ] } },
{ "type": "Feature", "properties": { "Name": "Usul" }, "geometry": { "type": "Point", "coordinates": [ 81.103420102570198, 19.440068858666901 ] } },
{ "type": "Feature", "properties": { "Name": "Vakkur" }, "geometry": { "type": "Point", "coordinates": [ 80.993917929710804, 19.478255158014399 ] } },
{ "type": "Feature", "properties": { "Name": "Warpida" }, "geometry": { "type": "Point", "coordinates": [ 80.882654271649301, 19.661255402214199 ] } },
{ "type": "Feature", "properties": { "Name": "gurmanjur" }, "geometry": { "type": "Point", "coordinates": [ 80.9923236008148, 19.6875809073337 ] } }
]
}
