{
"type": "FeatureCollection",
"name": "BTR",
"crs": { "type": "name", "properties": { "name": "urn:ogc:def:crs:OGC:1.3:CRS84" } },
"features": [
{ "type": "Feature", "properties": { "Name": "jungle kodenar" }, "geometry": { "type": "Point", "coordinates": [ 81.497656713049494, 19.225219799604599 ] } },
{ "type": "Feature", "properties": { "Name": "chote handapal" }, "geometry": { "type": "Point", "coordinates": [ 81.479533604455895, 19.313206659158102 ] } },
{ "type": "Feature", "properties": { "Name": "Gothiya" }, "geometry": { "type": "Point", "coordinates": [ 81.381598909809796, 19.251824404970499 ] } },
{ "type": "Feature", "properties": { "Name": "Palanar" }, "geometry": { "type": "Point", "coordinates": [ 81.432908646989503, 19.269600937199801 ] } },
{ "type": "Feature", "properties": { "Name": "Bodeli" }, "geometry": { "type": "Point", "coordinates": [ 81.387247146125901, 19.259688153722699 ] } },
{ "type": "Feature", "properties": { "Name": "Amlidahar" }, "geometry": { "type": "Point", "coordinates": [ 81.507650774165498, 19.218918194536901 ] } },
{ "type": "Feature", "properties": { "Name": "Amlidahar 1" }, "geometry": { "type": "Point", "coordinates": [ 81.4893517931215, 19.2138709169907 ] } },
{ "type": "Feature", "properties": { "Name": "Pichchi Koder" }, "geometry": { "type": "Point", "coordinates": [ 81.466428450689307, 19.218175441992098 ] } },
{ "type": "Feature", "properties": { "Name": "Koder" }, "geometry": { "type": "Point", "coordinates": [ 81.453628931420496, 19.205526436317701 ] } },
{ "type": "Feature", "properties": { "Name": "Erpund" }, "geometry": { "type": "Point", "coordinates": [ 81.4194427254087, 19.201690161941301 ] } },
{ "type": "Feature", "properties": { "Name": "arra Koder 1" }, "geometry": { "type": "Point", "coordinates": [ 81.436497290579695, 19.210510636926202 ] } },
{ "type": "Feature", "properties": { "Name": "Puspal" }, "geometry": { "type": "Point", "coordinates": [ 81.413546940506393, 19.213682392243399 ] } },
{ "type": "Feature", "properties": { "Name": "Malevahi" }, "geometry": { "type": "Point", "coordinates": [ 81.406678250167303, 19.204585200912799 ] } },
{ "type": "Feature", "properties": { "Name": "Kahchenar" }, "geometry": { "type": "Point", "coordinates": [ 81.363585821198498, 19.238707502743999 ] } },
{ "type": "Feature", "properties": { "Name": "Kodenar" }, "geometry": { "type": "Point", "coordinates": [ 81.514710601432697, 19.223307818528099 ] } }
]
}
