{
"type": "FeatureCollection",
"name": "DWA",
"crs": { "type": "name", "properties": { "name": "urn:ogc:def:crs:OGC:1.3:CRS84" } },
"features": [
{ "type": "Feature", "properties": { "Name": "Andawara" }, "geometry": { "type": "Point", "coordinates": [ 81.234220141052703, 19.1694886997984 ] } },
{ "type": "Feature", "properties": { "Name": "Bare Karka" }, "geometry": { "type": "Point", "coordinates": [ 81.326340350740196, 19.103047635899699 ] } },
{ "type": "Feature", "properties": { "Name": "Cherpal" }, "geometry": { "type": "Point", "coordinates": [ 81.287770062684601, 19.133715959018598 ] } },
{ "type": "Feature", "properties": { "Name": "Chhindnar 2" }, "geometry": { "type": "Point", "coordinates": [ 81.310615988145599, 19.091290984301398 ] } },
{ "type": "Feature", "properties": { "Name": "Handawada" }, "geometry": { "type": "Point", "coordinates": [ 81.2175, 19.198056 ] } },
{ "type": "Feature", "properties": { "Name": "Chhote Karka" }, "geometry": { "type": "Point", "coordinates": [ 81.299465140029398, 19.109874874445701 ] } },
{ "type": "Feature", "properties": { "Name": "Durmunji" }, "geometry": { "type": "Point", "coordinates": [ 81.245001271956397, 19.164599223385999 ] } },
{ "type": "Feature", "properties": { "Name": "Garsa" }, "geometry": { "type": "Point", "coordinates": [ 81.237093294243294, 19.092143223862202 ] } },
{ "type": "Feature", "properties": { "Name": "Hirwal" }, "geometry": { "type": "Point", "coordinates": [ 81.252429761548399, 19.1646926398735 ] } },
{ "type": "Feature", "properties": { "Name": "Hitawar" }, "geometry": { "type": "Point", "coordinates": [ 81.280170885616101, 19.1798288347271 ] } },
{ "type": "Feature", "properties": { "Name": "Ittampad" }, "geometry": { "type": "Point", "coordinates": [ 81.233462158571896, 19.1558254219376 ] } },
{ "type": "Feature", "properties": { "Name": "Kuyer" }, "geometry": { "type": "Point", "coordinates": [ 81.269369660198095, 19.123615920971599 ] } },
{ "type": "Feature", "properties": { "Name": "Kuyer" }, "geometry": { "type": "Point", "coordinates": [ 81.249195407344899, 19.107160088745498 ] } },
{ "type": "Feature", "properties": { "Name": "Kuyer 2" }, "geometry": { "type": "Point", "coordinates": [ 81.267486004887601, 19.111555138894499 ] } },
{ "type": "Feature", "properties": { "Name": "Muchnar" }, "geometry": { "type": "Point", "coordinates": [ 81.334540999008496, 19.1409967354255 ] } },
{ "type": "Feature", "properties": { "Name": "Padmeta" }, "geometry": { "type": "Point", "coordinates": [ 81.302736620043504, 19.141722114058499 ] } },
{ "type": "Feature", "properties": { "Name": "Pavarnar" }, "geometry": { "type": "Point", "coordinates": [ 81.295060827786202, 19.104284988591601 ] } },
{ "type": "Feature", "properties": { "Name": "Pavarnar 1" }, "geometry": { "type": "Point", "coordinates": [ 81.301330749038101, 19.097570887298101 ] } },
{ "type": "Feature", "properties": { "Name": "Tumrigunda" }, "geometry": { "type": "Point", "coordinates": [ 81.288505035329706, 19.146992327499099 ] } },
{ "type": "Feature", "properties": { "Name": "Wengopara" }, "geometry": { "type": "Point", "coordinates": [ 81.246212365926198, 19.112271485998001 ] } }
]
}
